{
  "_args": [
    [
      {
        "raw": "spotcrime",
        "scope": null,
        "escapedName": "spotcrime",
        "name": null,
        "rawSpec": "spotcrime",
        "spec": "C:\\Users\\kaya\\WebstormProjects\\Crime_analysys\\spotcrime",
        "type": "directory"
      },
      "C:\\Users\\kaya\\WebstormProjects\\Crime_analysys"
    ]
  ],
  "_from": "spotcrime",
  "_id": "spotcrime@1.0.1",
  "_inCache": true,
  "_location": "/spotcrime",
  "_phantomChildren": {},
  "_requested": {
    "raw": "spotcrime",
    "scope": null,
    "escapedName": "spotcrime",
    "name": null,
    "rawSpec": "spotcrime",
    "spec": "C:\\Users\\kaya\\WebstormProjects\\Crime_analysys\\spotcrime",
    "type": "directory"
  },
  "_requiredBy": [
    "#USER",
    "/"
  ],
  "_resolved": "file:spotcrime",
  "_shasum": "ed7344600239b6211fe0229a02e0a5b3edd0fb8f",
  "_shrinkwrap": null,
  "_spec": "spotcrime",
  "_where": "C:\\Users\\kaya\\WebstormProjects\\Crime_analysys",
  "author": {
    "name": "Contra",
    "email": "yo@contra.io",
    "url": "http://contra.io/"
  },
  "bugs": {
    "url": "https://github.com/wearefractal/spotcrime/issues"
  },
  "dependencies": {
    "request": "^2.0.0"
  },
  "description": "API client for crime statistics",
  "devDependencies": {
    "mocha": "*",
    "should": "*"
  },
  "engines": {
    "node": ">= 0.4.0"
  },
  "gitHead": "989d58b314421f430f0e61164eff8757ecc08df9",
  "homepage": "http://github.com/wearefractal/spotcrime",
  "licenses": [
    {
      "type": "MIT",
      "url": "http://github.com/wearefractal/spotcrime/raw/master/LICENSE"
    }
  ],
  "main": "./index.js",
  "name": "spotcrime",
  "optionalDependencies": {},
  "readme": "[![NPM version](https://badge.fury.io/js/spotcrime.png)](http://badge.fury.io/js/spotcrime)\r\n\r\n## Information\r\n\r\n<table>\r\n<tr>\r\n<td>Package</td><td>spotcrime</td>\r\n</tr>\r\n<tr>\r\n<td>Description</td>\r\n<td>API client for crime statistics</td>\r\n</tr>\r\n<tr>\r\n<td>Node Version</td>\r\n<td>>= 0.4</td>\r\n</tr>\r\n</table>\r\n\r\n## Usage\r\n\r\n```javascript\r\nvar spotcrime = require('spotcrime');\r\n\r\n// somewhere near phoenix, az\r\nvar loc = {\r\n  lat: 33.39657,\r\n  lon: -112.03422\r\n};\r\n\r\nvar radius = 0.01; // this is miles\r\n\r\nspotcrime.getCrimes(loc, radius, function(err, crimes){\r\n\r\n});\r\n```\r\n\r\n## Example Crimes\r\n\r\n```javascript\r\n[ { cdid: 46846473,\r\n    type: 'Assault',\r\n    date: '12/04/13 06:52 PM',\r\n    address: '2200 BLOCK OF E SCHOOL DR',\r\n    link: 'http://spotcrime.com/crime/46846473-bf48f72ccce82295caf2aee6aedca3e1',\r\n    lat: 33.4037116,\r\n    lon: -112.0341417 },\r\n  { cdid: 46845797,\r\n    type: 'Burglary',\r\n    date: '12/03/13 12:00 PM',\r\n    address: '2000 BLOCK OF E ST ANNE AV',\r\n    link: 'http://spotcrime.com/crime/46845797-82cbf298a022813edcee81e0a7ec827b',\r\n    lat: 33.3880011,\r\n    lon: -112.0387037 },\r\n  { cdid: 46846182,\r\n    type: 'Theft',\r\n    date: '12/01/13 08:00 AM',\r\n    address: '2200 BLOCK OF E ALTA VISTA RD',\r\n    link: 'http://spotcrime.com/crime/46846182-818423ce25e8e193cf531e769e0e4c30',\r\n    lat: 33.3892497,\r\n    lon: -112.0344112 },\r\n  { cdid: 46039372,\r\n    type: 'Arrest',\r\n    date: '11/29/13 01:18 AM',\r\n    address: '2000 BLOCK OF E BURGESS LA',\r\n    link: 'http://spotcrime.com/crime/46039372-bb0eb5147f7f6ab63f30ce7298ff2de2',\r\n    lat: 33.3902173,\r\n    lon: -112.0386689 },\r\n  { cdid: 46846219,\r\n    type: 'Assault',\r\n    date: '11/28/13 09:00 AM',\r\n    address: '6000 BLOCK OF S 25TH LA',\r\n    link: 'http://spotcrime.com/crime/46846219-cbe45d070a76520090147ac862b8eae4',\r\n    lat: 33.3933088,\r\n    lon: -112.0272747 },\r\n  { cdid: 46038235,\r\n    type: 'Arrest',\r\n    date: '11/26/13 09:45 PM',\r\n    address: '2100 BLOCK OF E MOBILE LA',\r\n    link: 'http://spotcrime.com/crime/46038235-61f1ce3ad5a5f259b95ca709b7e42700',\r\n    lat: 33.4015345,\r\n    lon: -112.0368315 },\r\n  { cdid: 45526778,\r\n    type: 'Assault',\r\n    date: '11/23/13 12:29 PM',\r\n    address: '2200 BLOCK OF E NANCY LA',\r\n    link: 'http://spotcrime.com/crime/45526778-aacdddd8c5fd83edee8aee7b55ce7cba',\r\n    lat: 33.3907383,\r\n    lon: -112.0343804 },\r\n  { cdid: 45526648,\r\n    type: 'Arrest',\r\n    date: '11/22/13 12:45 AM',\r\n    address: '00 BLOCK OF S 18TH PL',\r\n    link: 'http://spotcrime.com/crime/45526648-8c6523cf0f2ede15fa06ee8ba43ff7a9',\r\n    lat: 33.3996538,\r\n    lon: -112.0425118 },\r\n  { cdid: 45525295,\r\n    type: 'Burglary',\r\n    date: '11/19/13 06:00 PM',\r\n    address: '2000 BLOCK OF E ALTA VISTA RD',\r\n    link: 'http://spotcrime.com/crime/45525295-ac2846846772b7295d08b11c122b764f',\r\n    lat: 33.3894736,\r\n    lon: -112.0386812 },\r\n  { cdid: 45526055,\r\n    type: 'Assault',\r\n    date: '11/17/13 07:00 PM',\r\n    address: '2000 BLOCK OF E SOUTHERN AV',\r\n    link: 'http://spotcrime.com/crime/45526055-2226a1b74f9c35f93eea4f05e8790b8c',\r\n    lat: 33.3928994,\r\n    lon: -112.038771 },\r\n  { cdid: 45526002,\r\n    type: 'Assault',\r\n    date: '11/17/13 01:20 PM',\r\n    address: '1800 BLOCK OF E SUNLAND AV',\r\n    link: 'http://spotcrime.com/crime/45526002-7e8696518721e503edc21b66d681f69a',\r\n    lat: 33.3952706,\r\n    lon: -112.0419982 },\r\n  { cdid: 45399939,\r\n    type: 'Assault',\r\n    date: '11/14/13 06:26 PM',\r\n    address: '1800 BLOCK OF E CHIPMAN RD',\r\n    link: 'http://spotcrime.com/crime/45399939-60fe48fae1b88a8bb13a3f8da1321913',\r\n    lat: 33.4021139,\r\n    lon: -112.0425066 },\r\n  { cdid: 45399867,\r\n    type: 'Theft',\r\n    date: '11/14/13 02:50 AM',\r\n    address: '1800 BLOCK OF E WIER AV',\r\n    link: 'http://spotcrime.com/crime/45399867-16eec0ec24e8826e280f76e3cf3d5960',\r\n    lat: 33.4028975,\r\n    lon: -112.0419515 },\r\n  { cdid: 45399736,\r\n    type: 'Arrest',\r\n    date: '11/13/13 03:48 PM',\r\n    address: '2200 BLOCK OF E ALTA VISTA RD',\r\n    link: 'http://spotcrime.com/crime/45399736-8ad39cd813c9b532c36b067fdc33f389',\r\n    lat: 33.3892497,\r\n    lon: -112.0344112 },\r\n  { cdid: 45399857,\r\n    type: 'Theft',\r\n    date: '11/13/13 09:00 AM',\r\n    address: '2400 BLOCK OF E CHIPMAN RD',\r\n    link: 'http://spotcrime.com/crime/45399857-ebab1be3c66ca74d188fd1a837dc12dc',\r\n    lat: 33.4023596,\r\n    lon: -112.0298543 },\r\n  { cdid: 45399981,\r\n    type: 'Theft',\r\n    date: '11/12/13 10:00 PM',\r\n    address: '2200 BLOCK OF E SOUTHERN AV',\r\n    link: 'http://spotcrime.com/crime/45399981-e45f253643e6738ceb002d476c86bd78',\r\n    lat: 33.393055,\r\n    lon: -112.0343692 },\r\n  { cdid: 45398534,\r\n    type: 'Burglary',\r\n    date: '11/12/13 09:40 PM',\r\n    address: '6000 BLOCK OF S 24TH ST',\r\n    link: 'http://spotcrime.com/crime/45398534-1dd99d3647e293f6e85c3e59e40d1224',\r\n    lat: 33.3931883,\r\n    lon: -112.0300853 },\r\n  { cdid: 45398249,\r\n    type: 'Burglary',\r\n    date: '11/12/13 11:00 AM',\r\n    address: '2500 BLOCK OF E MOBILE LA',\r\n    link: 'http://spotcrime.com/crime/45398249-464b7a13198f081a547b7d3c5df7e3e3',\r\n    lat: 33.4014647,\r\n    lon: -112.0269926 },\r\n  { cdid: 45398125,\r\n    type: 'Burglary',\r\n    date: '11/11/13 05:00 PM',\r\n    address: '2200 BLOCK OF E SUNLAND AV',\r\n    link: 'http://spotcrime.com/crime/45398125-ed1c0ef761d15dc49c5073dcfbde7d65',\r\n    lat: 33.3963898,\r\n    lon: -112.0342238 },\r\n  { cdid: 45397891,\r\n    type: 'Burglary',\r\n    date: '11/10/13 05:00 PM',\r\n    address: '1900 BLOCK OF E ROESER RD',\r\n    link: 'http://spotcrime.com/crime/45397891-d0d1e497c806f4e1141363fa44d2ec33',\r\n    lat: 33.3996718,\r\n    lon: -112.0409278 },\r\n  { cdid: 45397831,\r\n    type: 'Burglary',\r\n    date: '11/10/13 09:00 AM',\r\n    address: '2200 BLOCK OF E ALTA VISTA RD',\r\n    link: 'http://spotcrime.com/crime/45397831-a3069cd4985acc7f10d81e7253717da8',\r\n    lat: 33.3892497,\r\n    lon: -112.0344112 },\r\n  { cdid: 45398680,\r\n    type: 'Assault',\r\n    date: '11/10/13 03:47 AM',\r\n    address: '2200 BLOCK OF E ST CATHERINE AV',\r\n    link: 'http://spotcrime.com/crime/45398680-5042b57e3c8b382023f3b1d8f502f175',\r\n    lat: 33.3885581,\r\n    lon: -112.0344187 },\r\n  { cdid: 45397854,\r\n    type: 'Burglary',\r\n    date: '11/09/13 02:00 AM',\r\n    address: '5700 BLOCK OF S 21ST TE',\r\n    link: 'http://spotcrime.com/crime/45397854-78d4b817012ae47dbd87c52761d7fc24',\r\n    lat: 33.3946717,\r\n    lon: -112.0350565 },\r\n  { cdid: 45286939,\r\n    type: 'Arrest',\r\n    date: '11/05/13 10:58 PM',\r\n    address: '2500 BLOCK OF E MOBILE LA',\r\n    link: 'http://spotcrime.com/crime/45286939-0f5d31616ac37df9341c0a64c2201a0b',\r\n    lat: 33.4014647,\r\n    lon: -112.0269926 },\r\n  { cdid: 45286601,\r\n    type: 'Assault',\r\n    date: '11/04/13 08:27 AM',\r\n    address: '2100 BLOCK OF E CARVER DR',\r\n    link: 'http://spotcrime.com/crime/45286601-6cf7b1a49862dbb04cdf5f1a09a56044',\r\n    lat: 33.4035415,\r\n    lon: -112.0374932 },\r\n  { cdid: 45286385,\r\n    type: 'Arrest',\r\n    date: '11/03/13 12:18 AM',\r\n    address: '1900 BLOCK OF E MOBILE LA',\r\n    link: 'http://spotcrime.com/crime/45286385-93710be743ce7ffbafd083a91eeb59a3',\r\n    lat: 33.4013553,\r\n    lon: -112.0405715 },\r\n  { cdid: 45171443,\r\n    type: 'Arrest',\r\n    date: '11/02/13 12:55 PM',\r\n    address: '2200 BLOCK OF E NANCY LA',\r\n    link: 'http://spotcrime.com/crime/45171443-c035e100285bc17fe5e0db4829037106',\r\n    lat: 33.3907383,\r\n    lon: -112.0343804 },\r\n  { cdid: 45171359,\r\n    type: 'Assault',\r\n    date: '11/02/13 12:38 AM',\r\n    address: '2500 BLOCK OF E ATLANTA AV',\r\n    link: 'http://spotcrime.com/crime/45171359-fe024ee261e9a7ca74d580ade7d75af0',\r\n    lat: 33.400552,\r\n    lon: -112.0270119 },\r\n  { cdid: 45171362,\r\n    type: 'Assault',\r\n    date: '11/02/13 12:20 AM',\r\n    address: '2500 BLOCK OF E MOBILE LA',\r\n    link: 'http://spotcrime.com/crime/45171362-85a51c7741e699a7a75dbea0ab2234e4',\r\n    lat: 33.4014647,\r\n    lon: -112.0269926 },\r\n  { cdid: 45286756,\r\n    type: 'Theft',\r\n    date: '11/01/13 01:00 AM',\r\n    address: '2100 BLOCK OF E HUNTINGTON DR',\r\n    link: 'http://spotcrime.com/crime/45286756-061412908c91bc0eb281c94a2c25849d',\r\n    lat: 33.3935261,\r\n    lon: -112.0361545 },\r\n  { cdid: 45169993,\r\n    type: 'Burglary',\r\n    date: '10/31/13 01:00 PM',\r\n    address: '1100 BLOCK OF E FRAKTUR RD',\r\n    link: 'http://spotcrime.com/crime/45169993-10af575a29849fb468f16ab54c6b1466',\r\n    lat: 33.3957776,\r\n    lon: -112.035973 },\r\n  { cdid: 45286658,\r\n    type: 'Theft',\r\n    date: '10/30/13 06:38 AM',\r\n    address: '2000 BLOCK OF E BURGESS LA',\r\n    link: 'http://spotcrime.com/crime/45286658-e9de501f4c2fe13bbf6bffc1c84fccc6',\r\n    lat: 33.3902173,\r\n    lon: -112.0386689 },\r\n  { cdid: 45170421,\r\n    type: 'Theft',\r\n    date: '10/28/13 12:48 PM',\r\n    address: '2400 BLOCK OF E SOUTHERN AV',\r\n    link: 'http://spotcrime.com/crime/45170421-9025f8a35bc99276306dc893dddae0ce',\r\n    lat: 33.3932169,\r\n    lon: -112.0300395 },\r\n  { cdid: 45169901,\r\n    type: 'Arrest',\r\n    date: '10/27/13 06:29 AM',\r\n    address: '6600 BLOCK OF S 22ND ST',\r\n    link: 'http://spotcrime.com/crime/45169901-7ca79c121712ddf1ecb769379ee8375f',\r\n    lat: 33.3874058,\r\n    lon: -112.0344249 },\r\n  { cdid: 45038273,\r\n    type: 'Burglary',\r\n    date: '10/23/13 04:30 PM',\r\n    address: '5000 BLOCK OF S 24TH ST',\r\n    link: 'http://spotcrime.com/crime/45038273-a640b6bac5b0016d71082887679606a0',\r\n    lat: 33.4014265,\r\n    lon: -112.0299195 },\r\n  { cdid: 45039443,\r\n    type: 'Assault',\r\n    date: '10/23/13 09:00 AM',\r\n    address: '2500 BLOCK OF E MOBILE LA',\r\n    link: 'http://spotcrime.com/crime/45039443-4f2ba90a57a63d75cead4a851b6ed0bf',\r\n    lat: 33.4014647,\r\n    lon: -112.0269926 },\r\n  { cdid: 45038782,\r\n    type: 'Theft',\r\n    date: '10/21/13 03:00 PM',\r\n    address: '2400 BLOCK OF E SOUTHERN AV',\r\n    link: 'http://spotcrime.com/crime/45038782-5db5b9cd7bd5b7417dd1137f845b7204',\r\n    lat: 33.3932169,\r\n    lon: -112.0300395 },\r\n  { cdid: 44894183,\r\n    type: 'Shooting',\r\n    date: '10/18/13 03:39 PM',\r\n    address: '6400 BLOCK OF S 21ST ST',\r\n    link: 'http://spotcrime.com/crime/44894183-5d0b413f7e4c3a28d48610cb028d7d78',\r\n    lat: 33.387732,\r\n    lon: -112.036577 },\r\n  { cdid: 44911288,\r\n    type: 'Assault',\r\n    date: '10/18/13 02:18 PM',\r\n    address: '6400 BLOCK OF S 21ST ST',\r\n    link: 'http://spotcrime.com/crime/44911288-c1efbbd1542fce8a7493223228763555',\r\n    lat: 33.3892406,\r\n    lon: -112.0363713 },\r\n  { cdid: 44911226,\r\n    type: 'Assault',\r\n    date: '10/17/13 09:03 AM',\r\n    address: '4600 BLOCK OF S 21ST ST',\r\n    link: 'http://spotcrime.com/crime/44911226-a5da6b4674cce468c13441e5b5d72ac0',\r\n    lat: 33.4048519,\r\n    lon: -112.0374933 },\r\n  { cdid: 44911141,\r\n    type: 'Assault',\r\n    date: '10/16/13 07:22 PM',\r\n    address: '6400 BLOCK OF S 21ST PL',\r\n    link: 'http://spotcrime.com/crime/44911141-08029f307406e3dad33f2067e09ad97f',\r\n    lat: 33.3892621,\r\n    lon: -112.0355023 },\r\n  { cdid: 45171089,\r\n    type: 'Assault',\r\n    date: '10/16/13 06:00 PM',\r\n    address: '1900 BLOCK OF E HIDALGO AV',\r\n    link: 'http://spotcrime.com/crime/45171089-28227b4f9c26be35690c8dbfef697635',\r\n    lat: 33.3937439,\r\n    lon: -112.0403549 },\r\n  { cdid: 45399029,\r\n    type: 'Theft',\r\n    date: '10/16/13 12:00 PM',\r\n    address: '2300 BLOCK OF E HUNTINGTON DR',\r\n    link: 'http://spotcrime.com/crime/45399029-c3330abb26eae61b51ac7e827197cd3c',\r\n    lat: 33.3934823,\r\n    lon: -112.0324101 },\r\n  { cdid: 44910717,\r\n    type: 'Robbery',\r\n    date: '10/15/13 01:00 PM',\r\n    address: '2200 BLOCK OF E SOUTHERN AV',\r\n    link: 'http://spotcrime.com/crime/44910717-f9f834daa00f8191456c3125296b5112',\r\n    lat: 33.393055,\r\n    lon: -112.0343692 },\r\n  { cdid: 44910713,\r\n    type: 'Assault',\r\n    date: '10/15/13 01:00 PM',\r\n    address: '2300 BLOCK OF E SHERATON LA',\r\n    link: 'http://spotcrime.com/crime/44910713-e41ea41b532986798080e6446812cc90',\r\n    lat: 33.4011662,\r\n    lon: -112.0320788 },\r\n  { cdid: 44909910,\r\n    type: 'Burglary',\r\n    date: '10/14/13 10:25 PM',\r\n    address: '2400 BLOCK OF E SOUTHERN AV',\r\n    link: 'http://spotcrime.com/crime/44909910-0d6137ab2d47cf823ec67430d66d1108',\r\n    lat: 33.3932169,\r\n    lon: -112.0300395 },\r\n  { cdid: 45039181,\r\n    type: 'Robbery',\r\n    date: '10/12/13 04:25 PM',\r\n    address: '2400 BLOCK OF E SOUTHERN AV',\r\n    link: 'http://spotcrime.com/crime/45039181-881d5c4a2b7d3fc1803607ccbcf4be4c',\r\n    lat: 33.3932169,\r\n    lon: -112.0300395 },\r\n  { cdid: 44782000,\r\n    type: 'Assault',\r\n    date: '10/12/13 10:00 AM',\r\n    address: '6400 BLOCK OF S 21ST ST',\r\n    link: 'http://spotcrime.com/crime/44782000-b1495fa097bab2b2b7c06a8daa8f7662',\r\n    lat: 33.3892406,\r\n    lon: -112.0363713 },\r\n  { cdid: 44781985,\r\n    type: 'Theft',\r\n    date: '10/12/13 02:30 AM',\r\n    address: '5100 BLOCK OF S 18TH PL',\r\n    link: 'http://spotcrime.com/crime/44781985-b77fdb76e43f57c8b6923955c1f40a60',\r\n    lat: 33.4001492,\r\n    lon: -112.0425218 },\r\n  { cdid: 44781895,\r\n    type: 'Arrest',\r\n    date: '10/11/13 04:28 PM',\r\n    address: '2000 BLOCK OF E BURGESS LA',\r\n    link: 'http://spotcrime.com/crime/44781895-2a9588f327c3234480e1a276882f3372',\r\n    lat: 33.3902173,\r\n    lon: -112.0386689 } ]\r\n```\r\n\r\n## LICENSE\r\n\r\n(MIT License)\r\n\r\nCopyright (c) 2016 Contra <yo@contra.io>\r\n\r\nPermission is hereby granted, free of charge, to any person obtaining\r\na copy of this software and associated documentation files (the\r\n\"Software\"), to deal in the Software without restriction, including\r\nwithout limitation the rights to use, copy, modify, merge, publish,\r\ndistribute, sublicense, and/or sell copies of the Software, and to\r\npermit persons to whom the Software is furnished to do so, subject to\r\nthe following conditions:\r\n\r\nThe above copyright notice and this permission notice shall be\r\nincluded in all copies or substantial portions of the Software.\r\n\r\nTHE SOFTWARE IS PROVIDED \"AS IS\", WITHOUT WARRANTY OF ANY KIND,\r\nEXPRESS OR IMPLIED, INCLUDING BUT NOT LIMITED TO THE WARRANTIES OF\r\nMERCHANTABILITY, FITNESS FOR A PARTICULAR PURPOSE AND\r\nNONINFRINGEMENT. IN NO EVENT SHALL THE AUTHORS OR COPYRIGHT HOLDERS BE\r\nLIABLE FOR ANY CLAIM, DAMAGES OR OTHER LIABILITY, WHETHER IN AN ACTION\r\nOF CONTRACT, TORT OR OTHERWISE, ARISING FROM, OUT OF OR IN CONNECTION\r\nWITH THE SOFTWARE OR THE USE OR OTHER DEALINGS IN THE SOFTWARE.\r\n",
  "readmeFilename": "README.md",
  "repository": {
    "type": "git",
    "url": "git://github.com/wearefractal/spotcrime.git"
  },
  "scripts": {
    "test": "mocha"
  },
  "version": "1.0.1"
}
